{"type":"FeatureCollection","features":[{"type":"Feature","id":1,"geometry":{"type":"Point","coordinates":[9.4969779331345965,51.311828162692017]},"properties":{"OBJECTID":1,"Objekt":"Allgemeine Ortskrankenkasse (AOK)","Str":"Friedrichsplatz","Hsnr":"14","PLZ":34117,"Ort":"Kassel","Tel":"06404 9242000","Link":null,"Adresse":"Friedrichsplatz 14","Plz_Ort":"34117 Kassel","Geprueft":null,"Existiert":null}},{"type":"Feature","id":2,"geometry":{"type":"Point","coordinates":[9.4901936828698084,51.318123101716409]},"properties":{"OBJECTID":2,"Objekt":"Hauptbahnhof","Str":"Bahnhofsplatz","Hsnr":"1","PLZ":34117,"Ort":"Kassel","Tel":"0561 7861055","Link":"https://www.kassel.de/buerger/stadtgeschichte/kassel-vor-dem-zweiten-weltkrieg/hauptbahnhof.php","Adresse":"Bahnhofsplatz 1","Plz_Ort":"34117 Kassel","Geprueft":null,"Existiert":null}},{"type":"Feature","id":3,"geometry":{"type":"Point","coordinates":[9.5017809803051438,51.31129624341407]},"properties":{"OBJECTID":3,"Objekt":"Hessenkampfbahn","Str":"Auedamm","Hsnr":"2","PLZ":34121,"Ort":"Kassel","Tel":"0561 7875233","Link":"https://www.kassel.de/verzeichnisse/adressverzeichnis/sportstaetten/sportplaetze/sportplatz-hessenkampfbahn.php","Adresse":"Auedamm 2","Plz_Ort":"34121 Kassel","Geprueft":null,"Existiert":null}},{"type":"Feature","id":4,"geometry":{"type":"Point","coordinates":[9.4930169997478426,51.312082366509955]},"properties":{"OBJECTID":4,"Objekt":"Rathaus","Str":"Obere Königsstraße ","Hsnr":"8","PLZ":34117,"Ort":"Kassel","Tel":"0561 7870","Link":"https://www.kassel.de/buerger/rathaus_und_politik/rund-ums-rathaus/rathaus-geschichte/index.php","Adresse":"Obere Königsstraße  8","Plz_Ort":"34117 Kassel","Geprueft":null,"Existiert":null}},{"type":"Feature","id":5,"geometry":{"type":"Point","coordinates":[9.4992899723470146,51.312713287664543]},"properties":{"OBJECTID":5,"Objekt":"Staatstheater","Str":"Friedrichsplatz","Hsnr":"15","PLZ":34117,"Ort":"Kassel","Tel":"0561 1094222","Link":"https://www.kassel.de/buerger/kunst_und_kultur/musik/theater-und-tanz/staatstheater-kassel.php","Adresse":"Friedrichsplatz 15","Plz_Ort":"34117 Kassel","Geprueft":null,"Existiert":null}},{"type":"Feature","id":6,"geometry":{"type":"Point","coordinates":[9.4701639840188143,51.297491617078201]},"properties":{"OBJECTID":6,"Objekt":"Park Schönfeld","Str":"Bosestraße","Hsnr":"13","PLZ":34121,"Ort":"Kassel","Tel":"0561 73976744","Link":"https://www.kassel.de/buerger/kunst_und_kultur/parks_und_gaerten/park-schoenfeld.php","Adresse":"Bosestraße 13","Plz_Ort":"34121 Kassel","Geprueft":null,"Existiert":null}},{"type":"Feature","id":7,"geometry":{"type":"Point","coordinates":[9.5007789769503574,51.310277712827776]},"properties":{"OBJECTID":7,"Objekt":"Orangerie","Str":"Am Auedamm","Hsnr":"20B","PLZ":34121,"Ort":"Kassel","Tel":"0561 28610318","Link":"https://www.kassel.de/buerger/kunst_und_kultur/museen/museen/astronomisch-physikalisches-kabinett.php","Adresse":"Am Auedamm 20B","Plz_Ort":"34121 Kassel","Geprueft":null,"Existiert":null}},{"type":"Feature","id":8,"geometry":{"type":"Point","coordinates":[9.4929265804533607,51.309540916446821]},"properties":{"OBJECTID":8,"Objekt":"Neue Galerie","Str":"Schöne Aussicht","Hsnr":"1","PLZ":34117,"Ort":"Kassel","Tel":"0561 31680400 ","Link":"https://www.kassel.de/buerger/kunst_und_kultur/museen/museen/neue-galerie.php","Adresse":"Schöne Aussicht 1","Plz_Ort":"34117 Kassel","Geprueft":null,"Existiert":null}},{"type":"Feature","id":9,"geometry":{"type":"Point","coordinates":[9.4939563507372124,51.309996224847389]},"properties":{"OBJECTID":9,"Objekt":"Palais Bellevue","Str":"Schöne Aussicht","Hsnr":"2","PLZ":34117,"Ort":"Kassel","Tel":"0561 7871252","Link":null,"Adresse":"Schöne Aussicht 2","Plz_Ort":"34117 Kassel","Geprueft":null,"Existiert":null}},{"type":"Feature","id":10,"geometry":{"type":"Point","coordinates":[9.4905768440432094,51.310101773946954]},"properties":{"OBJECTID":10,"Objekt":"Landes- u. Murhardbibliothek (Universität Kassel)","Str":"Brüder-Grimm-Platz","Hsnr":"4","PLZ":34117,"Ort":"Kassel","Tel":"0561 8047318","Link":"https://www.kassel.de/buerger/kunst_und_kultur/literatur/murhardsche-bibliothek.php","Adresse":"Brüder-Grimm-Platz 4","Plz_Ort":"34117 Kassel","Geprueft":null,"Existiert":null}},{"type":"Feature","id":11,"geometry":{"type":"Point","coordinates":[9.4974647878983305,51.313725623633459]},"properties":{"OBJECTID":11,"Objekt":"Museum Fridericianum (Kunsthalle)","Str":"Friedrichsplatz","Hsnr":"18","PLZ":34117,"Ort":"Kassel","Tel":"0561 7072720","Link":"https://www.kassel.de/buerger/kunst_und_kultur/museen/museen/museum-fridericianum.php","Adresse":"Friedrichsplatz 18","Plz_Ort":"34117 Kassel","Geprueft":null,"Existiert":null}},{"type":"Feature","id":12,"geometry":{"type":"Point","coordinates":[9.4987430068141236,51.313339680010401]},"properties":{"OBJECTID":12,"Objekt":"Ottoneum / Naturkundemuseum","Str":"Steinweg","Hsnr":"2","PLZ":34117,"Ort":"Kassel","Tel":"0561 7874066","Link":"https://www.kassel.de/buerger/kunst_und_kultur/museen/museen/naturkundemuseum-im-ottoneum.php","Adresse":"Steinweg 2","Plz_Ort":"34117 Kassel","Geprueft":null,"Existiert":null}},{"type":"Feature","id":13,"geometry":{"type":"Point","coordinates":[9.5028096726498514,51.315861071707332]},"properties":{"OBJECTID":13,"Objekt":"Markthalle (auch: Marstall)","Str":"Wildemannsgasse","Hsnr":"1","PLZ":34117,"Ort":"Kassel","Tel":"0561 780395","Link":"https://www.kassel.de/buerger/kunst_und_kultur/sehenswertes/marstall.php","Adresse":"Wildemannsgasse 1","Plz_Ort":"34117 Kassel","Geprueft":null,"Existiert":null}},{"type":"Feature","id":14,"geometry":{"type":"Point","coordinates":[9.5045609169177094,51.314973758138898]},"properties":{"OBJECTID":14,"Objekt":"Brüderkirche","Str":"Steinweg","Hsnr":null,"PLZ":34117,"Ort":"Kassel","Tel":"0561 3164500","Link":"https://www.kassel.de/buerger/kunst_und_kultur/sehenswertes/kirchen/bruederkirche.php","Adresse":"Steinweg ","Plz_Ort":"34117 Kassel","Geprueft":null,"Existiert":null}},{"type":"Feature","id":15,"geometry":{"type":"Point","coordinates":[9.4896653614045174,51.314817887944521]},"properties":{"OBJECTID":15,"Objekt":"Stadtmuseum","Str":"Wilhelmsstraße","Hsnr":"2","PLZ":34117,"Ort":"Kassel","Tel":"0561 7871400","Link":"https://www.kassel.de/buerger/kunst_und_kultur/museen/museen/stadtmuseum-kassel.php","Adresse":"Wilhelmsstraße 2","Plz_Ort":"34117 Kassel","Geprueft":null,"Existiert":null}},{"type":"Feature","id":16,"geometry":{"type":"Point","coordinates":[9.4607436298334573,51.316882091464727]},"properties":{"OBJECTID":16,"Objekt":"Stadthalle/Kongress Palais Kassel","Str":"Holger-Börner-Platz","Hsnr":"1","PLZ":34119,"Ort":"Kassel","Tel":"0561 707702","Link":"https://www.kassel.de/buerger/kunst_und_kultur/kultur-vor-ort/veranstaltungsorte/kongress-palais-kassel-stadthalle.php","Adresse":"Holger-Börner-Platz 1","Plz_Ort":"34119 Kassel","Geprueft":null,"Existiert":null}},{"type":"Feature","id":17,"geometry":{"type":"Point","coordinates":[9.4487416041628283,51.314598483714882]},"properties":{"OBJECTID":17,"Objekt":"Bundessozialgericht","Str":"Graf-Bernadotte-Platz","Hsnr":"5","PLZ":34119,"Ort":"Kassel","Tel":"0561 31071","Link":"https://www.kassel.de/buerger/kunst_und_kultur/sehenswertes/bundessozialgericht.php","Adresse":"Graf-Bernadotte-Platz 5","Plz_Ort":"34119 Kassel","Geprueft":null,"Existiert":null}},{"type":"Feature","id":18,"geometry":{"type":"Point","coordinates":[9.4162176020838526,51.314956205413701]},"properties":{"OBJECTID":18,"Objekt":"Schloss Wilhelmshöhe","Str":"Schlosspark","Hsnr":"1","PLZ":34131,"Ort":"Kassel","Tel":"0561 316800 ","Link":"https://www.kassel.de/buerger/kunst_und_kultur/parks_und_gaerten/wilhelmshoehe/sehenswertes/schloss-wilhelmshoehe.php","Adresse":"Schlosspark 1","Plz_Ort":"34131 Kassel","Geprueft":null,"Existiert":null}},{"type":"Feature","id":19,"geometry":{"type":"Point","coordinates":[9.3932892381414703,51.316113213277369]},"properties":{"OBJECTID":19,"Objekt":"Herkules","Str":"Schlosspark","Hsnr":"22","PLZ":34131,"Ort":"Kassel","Tel":"0561 312456","Link":"https://www.kassel.de/buerger/kunst_und_kultur/parks_und_gaerten/wilhelmshoehe/sehenswertes/herkules.php","Adresse":"Schlosspark 22","Plz_Ort":"34131 Kassel","Geprueft":null,"Existiert":null}},{"type":"Feature","id":20,"geometry":{"type":"Point","coordinates":[9.4089294686922642,51.311511645079882]},"properties":{"OBJECTID":20,"Objekt":"Löwenburg","Str":"Schlosspark","Hsnr":"9","PLZ":34131,"Ort":"Kassel","Tel":"0561 31680244","Link":"https://www.kassel.de/buerger/kunst_und_kultur/parks_und_gaerten/wilhelmshoehe/sehenswertes/loewenburg.php","Adresse":"Schlosspark 9","Plz_Ort":"34131 Kassel","Geprueft":null,"Existiert":null}},{"type":"Feature","id":21,"geometry":{"type":"Point","coordinates":[9.4900653257089864,51.318386963816174]},"properties":{"OBJECTID":21,"Objekt":"Kulturbahnhof","Str":"Rainer-Dierichs-Platz","Hsnr":"1","PLZ":34117,"Ort":"Kassel","Tel":"0561 7399011","Link":"https://www.kassel.de/buerger/kunst_und_kultur/kultur-vor-ort/veranstaltungsorte/kulturbahnhof-kassel.php","Adresse":"Rainer-Dierichs-Platz 1","Plz_Ort":"34117 Kassel","Geprueft":null,"Existiert":null}},{"type":"Feature","id":22,"geometry":{"type":"Point","coordinates":[9.4981701940366321,51.314270561855153]},"properties":{"OBJECTID":22,"Objekt":"Kulturhaus Dock 4","Str":"Untere Karlsstraße","Hsnr":"4","PLZ":34117,"Ort":"Kassel","Tel":"0561 7872067 ","Link":"https://www.kassel.de/buerger/kunst_und_kultur/kultur-vor-ort/veranstaltungsorte/kulturhaus-dock-4.php","Adresse":"Untere Karlsstraße 4","Plz_Ort":"34117 Kassel","Geprueft":null,"Existiert":null}},{"type":"Feature","id":23,"geometry":{"type":"Point","coordinates":[9.4874788955101401,51.295539457802462]},"properties":{"OBJECTID":23,"Objekt":"Siebenbergen (Blumeninsel)","Str":"Auedamm","Hsnr":"18","PLZ":34121,"Ort":"Kassel","Tel":"0561 7392173","Link":"https://www.kassel.de/buerger/kunst_und_kultur/parks_und_gaerten/blumeninsel-siebenbergen.php","Adresse":"Auedamm 18","Plz_Ort":"34121 Kassel","Geprueft":null,"Existiert":null}},{"type":"Feature","id":24,"geometry":{"type":"Point","coordinates":[9.5181148634882984,51.309873451746611]},"properties":{"OBJECTID":24,"Objekt":"Hallenbad Ost","Str":"Leipziger Straße","Hsnr":"99","PLZ":34123,"Ort":"Kassel","Tel":null,"Link":null,"Adresse":"Leipziger Straße 99","Plz_Ort":"34123 Kassel","Geprueft":null,"Existiert":null}},{"type":"Feature","id":25,"geometry":{"type":"Point","coordinates":[9.4042142840598828,51.315527998392746]},"properties":{"OBJECTID":25,"Objekt":"Bergpark Wilhelmshöhe (auch Schlosspark)","Str":null,"Hsnr":null,"PLZ":34131,"Ort":"Kassel","Tel":"0561 31680751","Link":"https://www.kassel.de/buerger/kunst_und_kultur/parks_und_gaerten/wilhelmshoehe/index.php","Adresse":" ","Plz_Ort":"34131 Kassel","Geprueft":null,"Existiert":null}},{"type":"Feature","id":26,"geometry":{"type":"Point","coordinates":[9.4947335106984792,51.311801148202065]},"properties":{"OBJECTID":26,"Objekt":"Karlskirche","Str":"Karlsplatz","Hsnr":null,"PLZ":34117,"Ort":"Kassel","Tel":"0561 772376","Link":"https://www.kassel.de/buerger/kunst_und_kultur/sehenswertes/kirchen/karlskirche.php","Adresse":"Karlsplatz ","Plz_Ort":"34117 Kassel","Geprueft":null,"Existiert":null}},{"type":"Feature","id":27,"geometry":{"type":"Point","coordinates":[9.4895191953875759,51.310788093103135]},"properties":{"OBJECTID":27,"Objekt":"Hessisches Landesmuseum","Str":"Brüder-Grimm-Platz","Hsnr":"1","PLZ":34117,"Ort":"Kassel","Tel":"0561 316800","Link":"https://www.kassel.de/buerger/kunst_und_kultur/museen/museen/hessisches-landesmuseum.php","Adresse":"Brüder-Grimm-Platz 1","Plz_Ort":"34117 Kassel","Geprueft":null,"Existiert":null}},{"type":"Feature","id":28,"geometry":{"type":"Point","coordinates":[9.5013503115900164,51.31723412293141]},"properties":{"OBJECTID":28,"Objekt":"Martinskirche","Str":"Martinsplatz","Hsnr":"5A","PLZ":34117,"Ort":"Kassel","Tel":"0561 770267","Link":"https://www.kassel.de/buerger/kunst_und_kultur/sehenswertes/kirchen/martinskirche.php","Adresse":"Martinsplatz 5A","Plz_Ort":"34117 Kassel","Geprueft":null,"Existiert":null}},{"type":"Feature","id":29,"geometry":{"type":"Point","coordinates":[9.4895675686821477,51.31111056129965]},"properties":{"OBJECTID":29,"Objekt":"Torwache","Str":"Brüder-Grimm-Platz","Hsnr":"5","PLZ":34117,"Ort":"Kassel","Tel":"","Link":"","Adresse":"Brüder-Grimm-Platz 5","Plz_Ort":"34117 Kassel","Geprueft":null,"Existiert":null}},{"type":"Feature","id":30,"geometry":{"type":"Point","coordinates":[9.503294124650294,51.315626854804492]},"properties":{"OBJECTID":30,"Objekt":"Stadtarchiv","Str":"Wildemannsgasse","Hsnr":"1","PLZ":34117,"Ort":"Kassel","Tel":"0561 7874050","Link":"https://www.kassel.de/buerger/stadtgeschichte/stadtarchiv/stadtarchiv.php","Adresse":"Wildemannsgasse 1","Plz_Ort":"34117 Kassel","Geprueft":null,"Existiert":null}},{"type":"Feature","id":31,"geometry":{"type":"Point","coordinates":[9.4679222878649814,51.316370880681603]},"properties":{"OBJECTID":31,"Objekt":"Friedenskirche","Str":"Friedrich-Ebert-Straße","Hsnr":"112","PLZ":34119,"Ort":"Kassel","Tel":"0561 36727 ","Link":"https://www.kassel.de/verzeichnisse/adressverzeichnis/gotteshaeuser/evangelische-kirchen/friedenskirche.php","Adresse":"Friedrich-Ebert-Straße 112","Plz_Ort":"34119 Kassel","Geprueft":null,"Existiert":null}},{"type":"Feature","id":32,"geometry":{"type":"Point","coordinates":[9.4632129693107281,51.316343957421843]},"properties":{"OBJECTID":32,"Objekt":"Rosenkranzkirche","Str":"Kirchweg","Hsnr":null,"PLZ":34119,"Ort":"Kassel","Tel":"04956 115013","Link":"https://www.kassel.de/verzeichnisse/adressverzeichnis/gotteshaeuser/katholische-kirchen/st.-maria.php","Adresse":"Kirchweg ","Plz_Ort":"34119 Kassel","Geprueft":null,"Existiert":null}},{"type":"Feature","id":33,"geometry":{"type":"Point","coordinates":[9.5124430581543002,51.324432841553801]},"properties":{"OBJECTID":33,"Objekt":"St. Bonifatius Kirche","Str":"Ihringshäuser Straße","Hsnr":"3","PLZ":34125,"Ort":"Kassel","Tel":"0561 874221","Link":"https://www.kassel.de/verzeichnisse/adressverzeichnis/gotteshaeuser/katholische-kirchen/st.-bonifatius.php","Adresse":"Ihringshäuser Straße 3","Plz_Ort":"34125 Kassel","Geprueft":null,"Existiert":null}},{"type":"Feature","id":34,"geometry":{"type":"Point","coordinates":[9.468489630460251,51.313948280586835]},"properties":{"OBJECTID":34,"Objekt":"Adventskirche-Wehlheiden","Str":"Lassallestraße","Hsnr":"2","PLZ":34119,"Ort":"Kassel","Tel":"0561 17955","Link":"https://www.kassel.de/verzeichnisse/adressverzeichnis/gotteshaeuser/evangelische-kirchen/adventskirche.php","Adresse":"Lassallestraße 2","Plz_Ort":"34119 Kassel","Geprueft":null,"Existiert":null}},{"type":"Feature","id":35,"geometry":{"type":"Point","coordinates":[9.4380408129409759,51.335809199793097]},"properties":{"OBJECTID":35,"Objekt":"Erlöserkirche Harleshausen","Str":"Karlshafener Straße","Hsnr":"4","PLZ":34128,"Ort":"Kassel","Tel":"0561 61469","Link":"https://www.kassel.de/verzeichnisse/adressverzeichnis/gotteshaeuser/evangelische-kirchen/erloeserkirche-harleshausen.php","Adresse":"Karlshafener Straße 4","Plz_Ort":"34128 Kassel","Geprueft":null,"Existiert":null}},{"type":"Feature","id":36,"geometry":{"type":"Point","coordinates":[9.444695132362499,51.322883341925156]},"properties":{"OBJECTID":36,"Objekt":"Kirche Kirchditmold","Str":"Schanzenstraße","Hsnr":"1","PLZ":34130,"Ort":"Kassel","Tel":"0170 6612259 ","Link":"https://www.kassel.de/verzeichnisse/adressverzeichnis/gotteshaeuser/evangelische-kirchen/kirche-kirchditmold.php","Adresse":"Schanzenstraße 1","Plz_Ort":"34130 Kassel","Geprueft":null,"Existiert":null}},{"type":"Feature","id":37,"geometry":{"type":"Point","coordinates":[9.4738177696301324,51.313064863776241]},"properties":{"OBJECTID":37,"Objekt":"Kreuzkirche","Str":"Luisenstraße","Hsnr":"13","PLZ":34119,"Ort":"Kassel","Tel":"0561 13665","Link":"https://www.kassel.de/verzeichnisse/adressverzeichnis/gotteshaeuser/evangelische-kirchen/kreuzkirche.php","Adresse":"Luisenstraße 13","Plz_Ort":"34119 Kassel","Geprueft":null,"Existiert":null}},{"type":"Feature","id":38,"geometry":{"type":"Point","coordinates":[9.4968719134166708,51.318340740194685]},"properties":{"OBJECTID":38,"Objekt":"Lutherkirche","Str":"Lutherplatz","Hsnr":null,"PLZ":34117,"Ort":"Kassel","Tel":null,"Link":"https://www.kassel.de/buerger/kunst_und_kultur/sehenswertes/kirchen/lutherkirche.php","Adresse":"Lutherplatz ","Plz_Ort":"34117 Kassel","Geprueft":null,"Existiert":null}},{"type":"Feature","id":39,"geometry":{"type":"Point","coordinates":[9.43294353020719,51.280337612639016]},"properties":{"OBJECTID":39,"Objekt":"Kirche Nordshausen","Str":"Korbacher Straße","Hsnr":"215","PLZ":34132,"Ort":"Kassel","Tel":"0561 401377","Link":"https://www.kassel.de/verzeichnisse/adressverzeichnis/gotteshaeuser/evangelische-kirchen/klosterkirche.php","Adresse":"Korbacher Straße 215","Plz_Ort":"34132 Kassel","Geprueft":null,"Existiert":null}},{"type":"Feature","id":40,"geometry":{"type":"Point","coordinates":[9.4158426979304881,51.315614363349219]},"properties":{"OBJECTID":40,"Objekt":"Schlosskapelle","Str":"Bad Wilhelmshöhe","Hsnr":null,"PLZ":34131,"Ort":"Kassel","Tel":"0561 32792","Link":"https://www.kassel.de/verzeichnisse/adressverzeichnis/gotteshaeuser/evangelische-kirchen/schlosskapelle.php","Adresse":"Bad Wilhelmshöhe ","Plz_Ort":"34131 Kassel","Geprueft":null,"Existiert":null}},{"type":"Feature","id":41,"geometry":{"type":"Point","coordinates":[9.4522010291112757,51.277479049693738]},"properties":{"OBJECTID":41,"Objekt":"Thomaskirche","Str":"An der Kirche","Hsnr":"2","PLZ":34132,"Ort":"Kassel","Tel":"0561 41744","Link":"https://www.kassel.de/verzeichnisse/adressverzeichnis/gotteshaeuser/evangelische-kirchen/thomaskirche.php","Adresse":"An der Kirche 2","Plz_Ort":"34132 Kassel","Geprueft":null,"Existiert":null}},{"type":"Feature","id":42,"geometry":{"type":"Point","coordinates":[9.5113985254451094,51.314893099840049]},"properties":{"OBJECTID":42,"Objekt":"Kirche Unterneustadt","Str":"Hafenstraße","Hsnr":"15","PLZ":34125,"Ort":"Kassel","Tel":null,"Link":"https://www.kassel.de/verzeichnisse/adressverzeichnis/gotteshaeuser/evangelische-kirchen/unterneustaedter-kirche.php","Adresse":"Hafenstraße 15","Plz_Ort":"34125 Kassel","Geprueft":null,"Existiert":null}},{"type":"Feature","id":43,"geometry":{"type":"Point","coordinates":[9.5134621727716464,51.290087045186262]},"properties":{"OBJECTID":43,"Objekt":"Kirche Waldau","Str":"Bergshäuser Straße","Hsnr":null,"PLZ":34123,"Ort":"Kassel","Tel":null,"Link":"https://www.kassel.de/verzeichnisse/adressverzeichnis/gotteshaeuser/evangelische-kirchen/kirche-waldau.php","Adresse":"Bergshäuser Straße ","Plz_Ort":"34123 Kassel","Geprueft":null,"Existiert":null}},{"type":"Feature","id":44,"geometry":{"type":"Point","coordinates":[9.5341504498584939,51.327412539070309]},"properties":{"OBJECTID":44,"Objekt":"Johanniskirche","Str":"Opferberg","Hsnr":"16","PLZ":34125,"Ort":"Kassel","Tel":"0561 871957","Link":null,"Adresse":"Opferberg 16","Plz_Ort":"34125 Kassel","Geprueft":null,"Existiert":null}},{"type":"Feature","id":45,"geometry":{"type":"Point","coordinates":[9.46142070489622,51.290246859644924]},"properties":{"OBJECTID":45,"Objekt":"Herz Jesu Kirche","Str":"Brüder-Grimm-Straße","Hsnr":"121","PLZ":34134,"Ort":"Kassel","Tel":"0561 43343","Link":"https://www.kassel.de/verzeichnisse/adressverzeichnis/gotteshaeuser/katholische-kirchen/herz-jesu.php","Adresse":"Brüder-Grimm-Straße 121","Plz_Ort":"34134 Kassel","Geprueft":null,"Existiert":null}},{"type":"Feature","id":46,"geometry":{"type":"Point","coordinates":[9.4405463222565835,51.332922811022698]},"properties":{"OBJECTID":46,"Objekt":"Herz Mariä Kirche","Str":"Ahnatalstraße","Hsnr":"29","PLZ":34128,"Ort":"Kassel","Tel":"0561 61524","Link":"https://www.kassel.de/verzeichnisse/adressverzeichnis/gotteshaeuser/katholische-kirchen/herz-mariae.php","Adresse":"Ahnatalstraße 29","Plz_Ort":"34128 Kassel","Geprueft":null,"Existiert":null}},{"type":"Feature","id":47,"geometry":{"type":"Point","coordinates":[9.4303655347584439,51.306348601397403]},"properties":{"OBJECTID":47,"Objekt":"Fatima Kirche","Str":"Memelweg ","Hsnr":"19","PLZ":34131,"Ort":"Kassel","Tel":"0561 37014","Link":"https://www.kassel.de/verzeichnisse/adressverzeichnis/gotteshaeuser/katholische-kirchen/maria-koenigin-des-friedens-fatimakirche.php","Adresse":"Memelweg  19","Plz_Ort":"34131 Kassel","Geprueft":null,"Existiert":null}},{"type":"Feature","id":48,"geometry":{"type":"Point","coordinates":[9.5243014660856833,51.307420865512242]},"properties":{"OBJECTID":48,"Objekt":"St. Kunigundis Kirche","Str":"Leipziger Straße","Hsnr":"145","PLZ":34123,"Ort":"Kassel","Tel":"0561 53482","Link":"https://www.kassel.de/verzeichnisse/adressverzeichnis/gotteshaeuser/katholische-kirchen/st.-kunigundis.php","Adresse":"Leipziger Straße 145","Plz_Ort":"34123 Kassel","Geprueft":null,"Existiert":null}},{"type":"Feature","id":49,"geometry":{"type":"Point","coordinates":[9.4408053666693981,51.273515300059422]},"properties":{"OBJECTID":49,"Objekt":"St. Nikolaus von Flüe Kirche","Str":"Kronenackerstraße","Hsnr":"4","PLZ":34132,"Ort":"Kassel","Tel":"0561 492277","Link":"https://www.kassel.de/verzeichnisse/adressverzeichnis/gotteshaeuser/katholische-kirchen/st.-nicolaus-von-fluee.php","Adresse":"Kronenackerstraße 4","Plz_Ort":"34132 Kassel","Geprueft":null,"Existiert":null}},{"type":"Feature","id":50,"geometry":{"type":"Point","coordinates":[9.5005790822222025,51.300771821679199]},"properties":{"OBJECTID":50,"Objekt":"Auebad","Str":"Auedamm","Hsnr":"21","PLZ":34121,"Ort":"Kassel","Tel":"0561 7822451","Link":"https://www.kassel.de/verzeichnisse/adressverzeichnis/sportstaetten/schwimmbaeder/Auebad.php","Adresse":"Auedamm 21","Plz_Ort":"34121 Kassel","Geprueft":null,"Existiert":null}},{"type":"Feature","id":51,"geometry":{"type":"Point","coordinates":[9.4893053536481187,51.274977837678847]},"properties":{"OBJECTID":51,"Objekt":"Museum Neue Mühle eV.","Str":"Neue Mühle","Hsnr":"8","PLZ":34134,"Ort":"Kassel","Tel":"0561 57452268","Link":"https://www.kassel.de/buerger/kunst_und_kultur/museen/museen/wasserkraftwerk-neue-muehle-energietechnikmuseum.php","Adresse":"Neue Mühle 8","Plz_Ort":"34134 Kassel","Geprueft":null,"Existiert":null}},{"type":"Feature","id":52,"geometry":{"type":"Point","coordinates":[9.4993918390057601,51.316299952973424]},"properties":{"OBJECTID":52,"Objekt":"Druselturm","Str":"Druselplatz","Hsnr":null,"PLZ":34117,"Ort":"Kassel","Tel":null,"Link":"https://www.kassel.de/buerger/kunst_und_kultur/sehenswertes/druselturm.php","Adresse":"Druselplatz ","Plz_Ort":"34117 Kassel","Geprueft":null,"Existiert":null}},{"type":"Feature","id":53,"geometry":{"type":"Point","coordinates":[9.4963826946263534,51.313383191182403]},"properties":{"OBJECTID":53,"Objekt":"Friedrichsplatz","Str":null,"Hsnr":null,"PLZ":null,"Ort":"Kassel","Tel":null,"Link":"https://www.kassel.de/buerger/kunst_und_kultur/sehenswertes/strassen-und-plaetze/friedrichsplatz.php","Adresse":" ","Plz_Ort":" Kassel","Geprueft":null,"Existiert":null}},{"type":"Feature","id":54,"geometry":{"type":"Point","coordinates":[9.4978658283020909,51.315769565512454]},"properties":{"OBJECTID":54,"Objekt":"Königsplatz","Str":null,"Hsnr":null,"PLZ":null,"Ort":"Kassel","Tel":null,"Link":"https://www.kassel.de/buerger/kunst_und_kultur/sehenswertes/strassen-und-plaetze/koenigsplatz.php","Adresse":" ","Plz_Ort":" Kassel","Geprueft":null,"Existiert":null}},{"type":"Feature","id":55,"geometry":{"type":"Point","coordinates":[9.4995576073544434,51.310438726812031]},"properties":{"OBJECTID":55,"Objekt":"Marmorbad","Str":"An der Karlsaue","Hsnr":"20","PLZ":34121,"Ort":"Kassel","Tel":"0561 31680500","Link":"https://www.kassel.de/buerger/kunst_und_kultur/museen/museen/marmorbad.php","Adresse":"An der Karlsaue 20","Plz_Ort":"34121 Kassel","Geprueft":null,"Existiert":null}},{"type":"Feature","id":56,"geometry":{"type":"Point","coordinates":[9.5044140288673624,51.313869479687924]},"properties":{"OBJECTID":56,"Objekt":"Rondell","Str":"Fuldaufer","Hsnr":null,"PLZ":34117,"Ort":"Kassel","Tel":null,"Link":"https://www.kassel.de/buerger/kunst_und_kultur/kultur-vor-ort/bildende-kunst/bastion-kunst.php","Adresse":"Fuldaufer ","Plz_Ort":"34117 Kassel","Geprueft":null,"Existiert":null}},{"type":"Feature","id":57,"geometry":{"type":"Point","coordinates":[9.5046380137700801,51.315980815944982]},"properties":{"OBJECTID":57,"Objekt":"Zisselbrunnen","Str":"Altmarkt ","Hsnr":null,"PLZ":null,"Ort":"Kassel","Tel":null,"Link":"https://www.kassel.de/buerger/kunst_und_kultur/sehenswertes/zisselbrunnen.php","Adresse":"Altmarkt  ","Plz_Ort":" Kassel","Geprueft":null,"Existiert":null}},{"type":"Feature","id":58,"geometry":{"type":"Point","coordinates":[9.4982164487779794,51.31372526018351]},"properties":{"OBJECTID":58,"Objekt":"Zwehrenturm","Str":"Steinweg","Hsnr":null,"PLZ":34117,"Ort":"Kassel","Tel":null,"Link":"https://www.kassel.de/buerger/kunst_und_kultur/sehenswertes/zwehrenturm.php","Adresse":"Steinweg ","Plz_Ort":"34117 Kassel","Geprueft":null,"Existiert":null}},{"type":"Feature","id":59,"geometry":{"type":"Point","coordinates":[9.3967088397573733,51.31595129213008]},"properties":{"OBJECTID":59,"Objekt":"Wasserkünste","Str":"Schlosspark","Hsnr":"","PLZ":34131,"Ort":"Kassel","Tel":null,"Link":"https://www.kassel.de/buerger/kunst_und_kultur/parks_und_gaerten/wilhelmshoehe/wasserspiele.php","Adresse":"Schlosspark ","Plz_Ort":"34131 Kassel","Geprueft":null,"Existiert":null}},{"type":"Feature","id":60,"geometry":{"type":"Point","coordinates":[9.4145962064071131,51.316771868714589]},"properties":{"OBJECTID":60,"Objekt":"Gewächshaus","Str":"Schlosspark","Hsnr":"","PLZ":34131,"Ort":"Kassel","Tel":"0561 31680242","Link":"https://www.kassel.de/buerger/kunst_und_kultur/parks_und_gaerten/wilhelmshoehe/sehenswertes/grosses-gewaechshaus.php","Adresse":"Schlosspark ","Plz_Ort":"34131 Kassel","Geprueft":null,"Existiert":null}},{"type":"Feature","id":61,"geometry":{"type":"Point","coordinates":[9.4159033910425318,51.316282019864538]},"properties":{"OBJECTID":61,"Objekt":"Ballhaus","Str":"Schlosspark","Hsnr":"5","PLZ":34131,"Ort":"Kassel","Tel":"0561 316800","Link":"https://www.kassel.de/buerger/kunst_und_kultur/parks_und_gaerten/wilhelmshoehe/sehenswertes/ballhaus.php","Adresse":"Schlosspark 5","Plz_Ort":"34131 Kassel","Geprueft":null,"Existiert":null}},{"type":"Feature","id":62,"geometry":{"type":"Point","coordinates":[9.5047482790241276,51.31477356563655]},"properties":{"OBJECTID":62,"Objekt":"Renthof","Str":"Steinweg","Hsnr":null,"PLZ":34117,"Ort":"Kassel","Tel":"0561 709930","Link":"https://www.kassel.de/buerger/kunst_und_kultur/sehenswertes/renthof.php","Adresse":"Steinweg ","Plz_Ort":"34117 Kassel","Geprueft":null,"Existiert":null}},{"type":"Feature","id":63,"geometry":{"type":"Point","coordinates":[9.50571580250819,51.31792303215957]},"properties":{"OBJECTID":63,"Objekt":"Zeughausruine","Str":"Weserstraße","Hsnr":"7A","PLZ":34125,"Ort":"Kassel","Tel":"0561 774021 ","Link":"https://www.kassel.de/buerger/kunst_und_kultur/sehenswertes/zeughausruine.php","Adresse":"Weserstraße 7A","Plz_Ort":"34125 Kassel","Geprueft":null,"Existiert":null}},{"type":"Feature","id":64,"geometry":{"type":"Point","coordinates":[9.4954962558254117,51.304677648750257]},"properties":{"OBJECTID":64,"Objekt":"Staatspark Karlsaue","Str":"Süd","Hsnr":null,"PLZ":34121,"Ort":"Kassel","Tel":"0561 31680600","Link":"https://www.kassel.de/buerger/kunst_und_kultur/parks_und_gaerten/staatspark-karlsaue.php","Adresse":"Süd ","Plz_Ort":"34121 Kassel","Geprueft":null,"Existiert":null}},{"type":"Feature","id":65,"geometry":{"type":"Point","coordinates":[9.5072584793035091,51.320690539304231]},"properties":{"OBJECTID":65,"Objekt":"Universität Kassel, Gießhaus","Str":"Mönchebergstraße","Hsnr":"5","PLZ":34127,"Ort":"Kassel","Tel":"0561 8040","Link":null,"Adresse":"Mönchebergstraße 5","Plz_Ort":"34127 Kassel","Geprueft":null,"Existiert":null}},{"type":"Feature","id":66,"geometry":{"type":"Point","coordinates":[9.4993346009241151,51.310777134035149]},"properties":{"OBJECTID":66,"Objekt":"Marmorbadbrücke","Str":"Auedamm","Hsnr":"","PLZ":34121,"Ort":"Kassel","Tel":null,"Link":null,"Adresse":"Auedamm ","Plz_Ort":"34121 Kassel","Geprueft":null,"Existiert":null}},{"type":"Feature","id":67,"geometry":{"type":"Point","coordinates":[9.4891814213078458,51.315809010692867]},"properties":{"OBJECTID":67,"Objekt":"Villa des Baustoffhändlers Scheldt","Str":"Akazienweg","Hsnr":"7","PLZ":34117,"Ort":"Kassel","Tel":null,"Link":null,"Adresse":"Akazienweg 7","Plz_Ort":"34117 Kassel","Geprueft":null,"Existiert":null}},{"type":"Feature","id":68,"geometry":{"type":"Point","coordinates":[9.5108305265696451,51.318053029160751]},"properties":{"OBJECTID":68,"Objekt":"Lohgerberhäuser","Str":"Am Werr","Hsnr":"2-10","PLZ":34125,"Ort":"Kassel","Tel":null,"Link":null,"Adresse":"Am Werr 2-10","Plz_Ort":"34125 Kassel","Geprueft":null,"Existiert":null}},{"type":"Feature","id":69,"geometry":{"type":"Point","coordinates":[9.5052742483156596,51.315321999358844]},"properties":{"OBJECTID":69,"Objekt":"U-förmige Anlage von Wohn- und Geschäftshäusern","Str":"An der Fuldabrücke","Hsnr":null,"PLZ":34117,"Ort":"Kassel","Tel":null,"Link":null,"Adresse":"An der Fuldabrücke ","Plz_Ort":"34117 Kassel","Geprueft":null,"Existiert":null}},{"type":"Feature","id":70,"geometry":{"type":"Point","coordinates":[9.4992021220630658,51.315349973602721]},"properties":{"OBJECTID":70,"Objekt":"Ruine der Hof- und Garnison-Kirche","Str":"An der Garnisonkirche","Hsnr":"2","PLZ":34117,"Ort":"Kassel","Tel":"0561 8619446","Link":null,"Adresse":"An der Garnisonkirche 2","Plz_Ort":"34117 Kassel","Geprueft":null,"Existiert":null}},{"type":"Feature","id":71,"geometry":{"type":"Point","coordinates":[9.5024767004592405,51.308826691776645]},"properties":{"OBJECTID":71,"Objekt":"Pumpstation","Str":"Auedamm","Hsnr":"13","PLZ":34121,"Ort":"Kassel","Tel":null,"Link":null,"Adresse":"Auedamm 13","Plz_Ort":"34121 Kassel","Geprueft":null,"Existiert":null}},{"type":"Feature","id":72,"geometry":{"type":"Point","coordinates":[9.5006540081225168,51.299796500326359]},"properties":{"OBJECTID":72,"Objekt":"Sprungturm des Schwimmstadions","Str":"Auedamm","Hsnr":"21","PLZ":34121,"Ort":"Kassel","Tel":null,"Link":null,"Adresse":"Auedamm 21","Plz_Ort":"34121 Kassel","Geprueft":null,"Existiert":null}},{"type":"Feature","id":73,"geometry":{"type":"Point","coordinates":[9.4994540991382888,51.298865482213451]},"properties":{"OBJECTID":73,"Objekt":"Trafostation","Str":"Auedamm","Hsnr":null,"PLZ":34121,"Ort":"Kassel","Tel":null,"Link":null,"Adresse":"Auedamm ","Plz_Ort":"34121 Kassel","Geprueft":null,"Existiert":null}},{"type":"Feature","id":74,"geometry":{"type":"Point","coordinates":[9.4911111407117694,51.311139223730265]},"properties":{"OBJECTID":74,"Objekt":"Kasseler Post","Str":"Brüder-Grimm-Platz","Hsnr":"4","PLZ":34117,"Ort":"Kassel","Tel":null,"Link":null,"Adresse":"Brüder-Grimm-Platz 4","Plz_Ort":"34117 Kassel","Geprueft":null,"Existiert":null}},{"type":"Feature","id":75,"geometry":{"type":"Point","coordinates":[9.4888855848074254,51.317111716755917]},"properties":{"OBJECTID":75,"Objekt":"Wohnhaus","Str":"Bürgermeister-Brunner-Straße","Hsnr":"4","PLZ":34117,"Ort":"Kassel","Tel":null,"Link":null,"Adresse":"Bürgermeister-Brunner-Straße 4","Plz_Ort":"34117 Kassel","Geprueft":null,"Existiert":null}},{"type":"Feature","id":76,"geometry":{"type":"Point","coordinates":[9.5042594752567791,51.315813477793483]},"properties":{"OBJECTID":76,"Objekt":"Renaissance-Portal","Str":"Die Freiheit","Hsnr":"12","PLZ":34117,"Ort":"Kassel","Tel":null,"Link":null,"Adresse":"Die Freiheit 12","Plz_Ort":"34117 Kassel","Geprueft":null,"Existiert":null}},{"type":"Feature","id":77,"geometry":{"type":"Point","coordinates":[9.5053215758118856,51.314655836536154]},"properties":{"OBJECTID":77,"Objekt":"Die Schlagd","Str":"Die Schlagd","Hsnr":null,"PLZ":34125,"Ort":"Kassel","Tel":null,"Link":null,"Adresse":"Die Schlagd ","Plz_Ort":"34125 Kassel","Geprueft":null,"Existiert":null}},{"type":"Feature","id":78,"geometry":{"type":"Point","coordinates":[9.5036862846687562,51.312273053406209]},"properties":{"OBJECTID":78,"Objekt":"Drahtbrücke","Str":"Drahtbrücke","Hsnr":null,"PLZ":34121,"Ort":"Kassel","Tel":null,"Link":null,"Adresse":"Drahtbrücke ","Plz_Ort":"34121 Kassel","Geprueft":null,"Existiert":null}},{"type":"Feature","id":79,"geometry":{"type":"Point","coordinates":[9.5000294453113092,51.315485340708399]},"properties":{"OBJECTID":79,"Objekt":"Entenanger","Str":"Entenanger","Hsnr":null,"PLZ":34117,"Ort":"Kassel","Tel":null,"Link":null,"Adresse":"Entenanger ","Plz_Ort":"34117 Kassel","Geprueft":null,"Existiert":null}},{"type":"Feature","id":80,"geometry":{"type":"Point","coordinates":[9.4927556017751851,51.318971570832176]},"properties":{"OBJECTID":80,"Objekt":"Geschäfts- und Gewerbegebäude","Str":"Erzbergerstraße","Hsnr":"3-5","PLZ":34117,"Ort":"Kassel","Tel":null,"Link":null,"Adresse":"Erzbergerstraße 3-5","Plz_Ort":"34117 Kassel","Geprueft":null,"Existiert":null}},{"type":"Feature","id":81,"geometry":{"type":"Point","coordinates":[9.4935011862349192,51.314885162842899]},"properties":{"OBJECTID":81,"Objekt":"Blumenkiosk","Str":"Florentiner Platz","Hsnr":null,"PLZ":34117,"Ort":"Kassel","Tel":null,"Link":null,"Adresse":"Florentiner Platz ","Plz_Ort":"34117 Kassel","Geprueft":null,"Existiert":null}},{"type":"Feature","id":82,"geometry":{"type":"Point","coordinates":[9.4919944217982728,51.309137637160028]},"properties":{"OBJECTID":82,"Objekt":"Inschriftentafel an der Weinbergbrücke","Str":"Frankfurter Straße","Hsnr":null,"PLZ":34125,"Ort":"Kassel","Tel":null,"Link":null,"Adresse":"Frankfurter Straße ","Plz_Ort":"34125 Kassel","Geprueft":null,"Existiert":null}},{"type":"Feature","id":83,"geometry":{"type":"Point","coordinates":[9.4902439630225963,51.312096130800455]},"properties":{"OBJECTID":83,"Objekt":"Bebauung","Str":"Friedrichsstraße","Hsnr":"13-23","PLZ":34117,"Ort":"Kassel","Tel":null,"Link":null,"Adresse":"Friedrichsstraße 13-23","Plz_Ort":"34117 Kassel","Geprueft":null,"Existiert":null}},{"type":"Feature","id":84,"geometry":{"type":"Point","coordinates":[9.5030171602850864,51.316600851772577]},"properties":{"OBJECTID":84,"Objekt":"Ehem. Portal des Steinhauses Marktgasse 17","Str":"Graben","Hsnr":"20","PLZ":34117,"Ort":"Kassel","Tel":null,"Link":null,"Adresse":"Graben 20","Plz_Ort":"34117 Kassel","Geprueft":null,"Existiert":null}},{"type":"Feature","id":85,"geometry":{"type":"Point","coordinates":[9.4891964334351844,51.310374738144162]},"properties":{"OBJECTID":85,"Objekt":"Ehem. Direktoren-Wohnhaus","Str":"Humboldtstraße","Hsnr":"1A","PLZ":34117,"Ort":"Kassel","Tel":null,"Link":null,"Adresse":"Humboldtstraße 1A","Plz_Ort":"34117 Kassel","Geprueft":null,"Existiert":null}},{"type":"Feature","id":86,"geometry":{"type":"Point","coordinates":[9.4879009801266978,51.310170847518492]},"properties":{"OBJECTID":86,"Objekt":"Friedrichsgymnasium","Str":"Humboldtstraße","Hsnr":"5","PLZ":34117,"Ort":"Kassel","Tel":null,"Link":"https://www.kassel.de/verzeichnisse/adressverzeichnis/schulen/gymnasiale-oberstufen-und-gymnasien/friedrichsgymnasium.php","Adresse":"Humboldtstraße 5","Plz_Ort":"34117 Kassel","Geprueft":null,"Existiert":null}},{"type":"Feature","id":87,"geometry":{"type":"Point","coordinates":[9.4889141488436195,51.310665134029222]},"properties":{"OBJECTID":87,"Objekt":"Villa","Str":"Humboldtstraße","Hsnr":"6","PLZ":34117,"Ort":"Kassel","Tel":null,"Link":null,"Adresse":"Humboldtstraße 6","Plz_Ort":"34117 Kassel","Geprueft":null,"Existiert":null}},{"type":"Feature","id":88,"geometry":{"type":"Point","coordinates":[9.4923189293141821,51.308824222620849]},"properties":{"OBJECTID":88,"Objekt":"Frühstückspavillion","Str":"Karlsaue","Hsnr":"","PLZ":34121,"Ort":"Kassel","Tel":null,"Link":null,"Adresse":"Karlsaue ","Plz_Ort":"34121 Kassel","Geprueft":null,"Existiert":null}},{"type":"Feature","id":89,"geometry":{"type":"Point","coordinates":[9.4896660308675465,51.298031608530003]},"properties":{"OBJECTID":89,"Objekt":"Tempel auf der Schwaneninsel","Str":"Karlsaue","Hsnr":"","PLZ":34121,"Ort":"Kassel","Tel":null,"Link":null,"Adresse":"Karlsaue ","Plz_Ort":"34121 Kassel","Geprueft":null,"Existiert":null}},{"type":"Feature","id":90,"geometry":{"type":"Point","coordinates":[9.4885963409025411,51.294477957492532]},"properties":{"OBJECTID":90,"Objekt":"Parkwächterhaus","Str":"Auedamm","Hsnr":"58","PLZ":34121,"Ort":"Kassel","Tel":null,"Link":null,"Adresse":"Auedamm 58","Plz_Ort":"34121 Kassel","Geprueft":null,"Existiert":null}},{"type":"Feature","id":91,"geometry":{"type":"Point","coordinates":[9.4861450707255699,51.303172272956616]},"properties":{"OBJECTID":91,"Objekt":"Parkwächterhaus","Str":"Heinrich-Heine-Straße","Hsnr":"1","PLZ":34121,"Ort":"Kassel","Tel":null,"Link":null,"Adresse":"Heinrich-Heine-Straße 1","Plz_Ort":"34121 Kassel","Geprueft":null,"Existiert":null}},{"type":"Feature","id":92,"geometry":{"type":"Point","coordinates":[9.4864486389224627,51.303174816964749]},"properties":{"OBJECTID":92,"Objekt":"Parktor (Aueportal)","Str":"Heinrich-Heine-Straße/Menzelstraße","Hsnr":null,"PLZ":34121,"Ort":"Kassel","Tel":null,"Link":null,"Adresse":"Heinrich-Heine-Straße/Menzelstraße ","Plz_Ort":"34121 Kassel","Geprueft":null,"Existiert":null}},{"type":"Feature","id":93,"geometry":{"type":"Point","coordinates":[9.5028459849729447,51.313167149295673]},"properties":{"OBJECTID":93,"Objekt":"Löwenbrücke","Str":null,"Hsnr":null,"PLZ":34131,"Ort":"Kassel","Tel":null,"Link":null,"Adresse":" ","Plz_Ort":"34131 Kassel","Geprueft":null,"Existiert":null}},{"type":"Feature","id":94,"geometry":{"type":"Point","coordinates":[9.4978688204491757,51.311670058457992]},"properties":{"OBJECTID":94,"Objekt":"Hessenlöwe","Str":"Gustav-Mahler-Treppe","Hsnr":null,"PLZ":34121,"Ort":"Kassel","Tel":null,"Link":null,"Adresse":"Gustav-Mahler-Treppe ","Plz_Ort":"34121 Kassel","Geprueft":null,"Existiert":null}},{"type":"Feature","id":95,"geometry":{"type":"Point","coordinates":[9.4943312471720116,51.311890558305365]},"properties":{"OBJECTID":95,"Objekt":"Landgrafen Karl Standbild","Str":"Karlsplatz","Hsnr":null,"PLZ":34117,"Ort":"Kassel","Tel":null,"Link":null,"Adresse":"Karlsplatz ","Plz_Ort":"34117 Kassel","Geprueft":null,"Existiert":null}},{"type":"Feature","id":96,"geometry":{"type":"Point","coordinates":[9.4947816300493688,51.317064092652956]},"properties":{"OBJECTID":96,"Objekt":"Friedenshof","Str":"Kleine Rosenstraße","Hsnr":"4","PLZ":34117,"Ort":"Kassel","Tel":null,"Link":null,"Adresse":"Kleine Rosenstraße 4","Plz_Ort":"34117 Kassel","Geprueft":null,"Existiert":null}},{"type":"Feature","id":97,"geometry":{"type":"Point","coordinates":[9.4894832259489927,51.316778142065679]},"properties":{"OBJECTID":97,"Objekt":"Wohnhaus","Str":"Kölnische Straße","Hsnr":"34","PLZ":34117,"Ort":"Kassel","Tel":null,"Link":null,"Adresse":"Kölnische Straße 34","Plz_Ort":"34117 Kassel","Geprueft":null,"Existiert":null}},{"type":"Feature","id":98,"geometry":{"type":"Point","coordinates":[9.4883114180702304,51.317369081527261]},"properties":{"OBJECTID":98,"Objekt":"Bormeissches Gartenhaus","Str":"Kölnische Straße","Hsnr":"40","PLZ":34117,"Ort":"Kassel","Tel":null,"Link":null,"Adresse":"Kölnische Straße 40","Plz_Ort":"34117 Kassel","Geprueft":null,"Existiert":null}},{"type":"Feature","id":99,"geometry":{"type":"Point","coordinates":[9.49690890333315,51.3161113189867]},"properties":{"OBJECTID":99,"Objekt":"Volksbank","Str":"Königsplatz","Hsnr":"57","PLZ":34117,"Ort":"Kassel","Tel":null,"Link":null,"Adresse":"Königsplatz 57","Plz_Ort":"34117 Kassel","Geprueft":null,"Existiert":null}},{"type":"Feature","id":100,"geometry":{"type":"Point","coordinates":[9.4873017459199041,51.313210108423952]},"properties":{"OBJECTID":100,"Objekt":"Mietshaus","Str":"Königstor","Hsnr":"14","PLZ":34117,"Ort":"Kassel","Tel":null,"Link":null,"Adresse":"Königstor 14","Plz_Ort":"34117 Kassel","Geprueft":null,"Existiert":null}},{"type":"Feature","id":101,"geometry":{"type":"Point","coordinates":[9.486998071199757,51.313203763323479]},"properties":{"OBJECTID":101,"Objekt":"Wohnhaus","Str":"Königstor","Hsnr":"16","PLZ":34117,"Ort":"Kassel","Tel":null,"Link":null,"Adresse":"Königstor 16","Plz_Ort":"34117 Kassel","Geprueft":null,"Existiert":null}},{"type":"Feature","id":102,"geometry":{"type":"Point","coordinates":[9.4867005489146443,51.313205000972793]},"properties":{"OBJECTID":102,"Objekt":"Wohn- und Geschäftshaus","Str":"Königstor","Hsnr":"18","PLZ":34117,"Ort":"Kassel","Tel":null,"Link":null,"Adresse":"Königstor 18","Plz_Ort":"34117 Kassel","Geprueft":null,"Existiert":null}},{"type":"Feature","id":103,"geometry":{"type":"Point","coordinates":[9.508077879304496,51.314057856051029]},"properties":{"OBJECTID":103,"Objekt":"Pavillion am Messeplatz","Str":"Leipziger Straße","Hsnr":"2","PLZ":34125,"Ort":"Kassel","Tel":null,"Link":null,"Adresse":"Leipziger Straße 2","Plz_Ort":"34125 Kassel","Geprueft":null,"Existiert":null}},{"type":"Feature","id":104,"geometry":{"type":"Point","coordinates":[9.510275117719905,51.313428001234058]},"properties":{"OBJECTID":104,"Objekt":"Unterneustädter Schule","Str":"Leipziger Straße","Hsnr":"13","PLZ":34125,"Ort":"Kassel","Tel":null,"Link":"https://www.kassel.de/verzeichnisse/adressverzeichnis/schulen/grundschulen/unterneustaedter-schule.php","Adresse":"Leipziger Straße 13","Plz_Ort":"34125 Kassel","Geprueft":null,"Existiert":null}},{"type":"Feature","id":105,"geometry":{"type":"Point","coordinates":[9.4964487376384685,51.318484078997905]},"properties":{"OBJECTID":105,"Objekt":"Altstädter Friedhof","Str":"Lutherplatz","Hsnr":null,"PLZ":34117,"Ort":"Kassel","Tel":null,"Link":"https://www.kassel.de/buerger/kunst_und_kultur/sehenswertes/kirchen/altstaedter-friedhof-mit-grimm-graebern.php","Adresse":"Lutherplatz ","Plz_Ort":"34117 Kassel","Geprueft":null,"Existiert":null}},{"type":"Feature","id":106,"geometry":{"type":"Point","coordinates":[9.5006685619557292,51.31673841188929]},"properties":{"OBJECTID":106,"Objekt":"Portalanlage","Str":"Martinsplatz","Hsnr":"2","PLZ":34117,"Ort":"Kassel","Tel":null,"Link":null,"Adresse":"Martinsplatz 2","Plz_Ort":"34117 Kassel","Geprueft":null,"Existiert":null}},{"type":"Feature","id":107,"geometry":{"type":"Point","coordinates":[9.5080840393726724,51.315713209328855]},"properties":{"OBJECTID":107,"Objekt":"Ruine der ehm. Unterneustädter Mühle","Str":"Mühlengasse","Hsnr":null,"PLZ":34125,"Ort":"Kassel","Tel":null,"Link":null,"Adresse":"Mühlengasse ","Plz_Ort":"34125 Kassel","Geprueft":null,"Existiert":null}},{"type":"Feature","id":108,"geometry":{"type":"Point","coordinates":[9.4918396107624083,51.311124745922633]},"properties":{"OBJECTID":108,"Objekt":"Inschriftentafel","Str":"Obere Karlsstraße","Hsnr":"3","PLZ":34117,"Ort":"Kassel","Tel":null,"Link":null,"Adresse":"Obere Karlsstraße 3","Plz_Ort":"34117 Kassel","Geprueft":null,"Existiert":null}},{"type":"Feature","id":109,"geometry":{"type":"Point","coordinates":[9.4911880277035969,51.311515642025888]},"properties":{"OBJECTID":109,"Objekt":"Parkhotel Hessenland","Str":"Obere Königsstraße","Hsnr":"2","PLZ":34117,"Ort":"Kassel","Tel":null,"Link":null,"Adresse":"Obere Königsstraße 2","Plz_Ort":"34117 Kassel","Geprueft":null,"Existiert":null}},{"type":"Feature","id":110,"geometry":{"type":"Point","coordinates":[9.4926299994777157,51.312921406670696]},"properties":{"OBJECTID":110,"Objekt":"Wohn- und Geschäftshaus","Str":"Obere Königsstraße","Hsnr":"21","PLZ":34117,"Ort":"Kassel","Tel":null,"Link":null,"Adresse":"Obere Königsstraße 21","Plz_Ort":"34117 Kassel","Geprueft":null,"Existiert":null}},{"type":"Feature","id":111,"geometry":{"type":"Point","coordinates":[9.4987302920179744,51.313839312171552]},"properties":{"OBJECTID":111,"Objekt":"St.  Elisabeth-Hospital","Str":"Oberste Gasse","Hsnr":"2-8","PLZ":34117,"Ort":"Kassel","Tel":null,"Link":null,"Adresse":"Oberste Gasse 2-8","Plz_Ort":"34117 Kassel","Geprueft":null,"Existiert":null}},{"type":"Feature","id":112,"geometry":{"type":"Point","coordinates":[9.4942456124476564,51.31409048184581]},"properties":{"OBJECTID":112,"Objekt":"Spohr-Denkmal","Str":"Opernplatz","Hsnr":null,"PLZ":34117,"Ort":"Kassel","Tel":null,"Link":null,"Adresse":"Opernplatz ","Plz_Ort":"34117 Kassel","Geprueft":null,"Existiert":null}},{"type":"Feature","id":113,"geometry":{"type":"Point","coordinates":[9.4933239768544002,51.314216147317502]},"properties":{"OBJECTID":113,"Objekt":"Eckgebäude","Str":"Opernstraße","Hsnr":"2","PLZ":34117,"Ort":"Kassel","Tel":null,"Link":null,"Adresse":"Opernstraße 2","Plz_Ort":"34117 Kassel","Geprueft":null,"Existiert":null}},{"type":"Feature","id":114,"geometry":{"type":"Point","coordinates":[9.4922403482648043,51.314525150810177]},"properties":{"OBJECTID":114,"Objekt":"Eckhaus","Str":"Wolfsschlucht","Hsnr":"6A","PLZ":34117,"Ort":"Kassel","Tel":null,"Link":null,"Adresse":"Wolfsschlucht 6A","Plz_Ort":"34117 Kassel","Geprueft":null,"Existiert":null}},{"type":"Feature","id":115,"geometry":{"type":"Point","coordinates":[9.491856097501433,51.314366937078056]},"properties":{"OBJECTID":115,"Objekt":"Eckhaus","Str":"Opernstraße","Hsnr":"15","PLZ":34117,"Ort":"Kassel","Tel":null,"Link":null,"Adresse":"Opernstraße 15","Plz_Ort":"34117 Kassel","Geprueft":null,"Existiert":null}},{"type":"Feature","id":116,"geometry":{"type":"Point","coordinates":[9.4990832467269577,51.313350706269887]},"properties":{"OBJECTID":116,"Objekt":"Papinbrunnen","Str":"Steinweg","Hsnr":"2","PLZ":34117,"Ort":"Kassel","Tel":null,"Link":null,"Adresse":"Steinweg 2","Plz_Ort":"34117 Kassel","Geprueft":null,"Existiert":null}},{"type":"Feature","id":117,"geometry":{"type":"Point","coordinates":[9.5044838818868946,51.314682284989686]},"properties":{"OBJECTID":117,"Objekt":"Apollobrunnen","Str":"Renthof","Hsnr":null,"PLZ":34117,"Ort":"Kassel","Tel":null,"Link":null,"Adresse":"Renthof ","Plz_Ort":"34117 Kassel","Geprueft":null,"Existiert":null}},{"type":"Feature","id":118,"geometry":{"type":"Point","coordinates":[9.4881816195221642,51.315375558238046]},"properties":{"OBJECTID":118,"Objekt":"Villa","Str":"Richardweg","Hsnr":"3","PLZ":34117,"Ort":"Kassel","Tel":null,"Link":null,"Adresse":"Richardweg 3","Plz_Ort":"34117 Kassel","Geprueft":null,"Existiert":null}},{"type":"Feature","id":119,"geometry":{"type":"Point","coordinates":[9.493111367718452,51.316405189275166]},"properties":{"OBJECTID":119,"Objekt":"Verwaltungsgebäude","Str":"Scheidemannplatz","Hsnr":"1","PLZ":34117,"Ort":"Kassel","Tel":null,"Link":null,"Adresse":"Scheidemannplatz 1","Plz_Ort":"34117 Kassel","Geprueft":null,"Existiert":null}},{"type":"Feature","id":120,"geometry":{"type":"Point","coordinates":[9.4963302625636103,51.311452073271433]},"properties":{"OBJECTID":120,"Objekt":"Wohnhaus","Str":"Schöne Aussicht","Hsnr":"9","PLZ":34117,"Ort":"Kassel","Tel":null,"Link":null,"Adresse":"Schöne Aussicht 9","Plz_Ort":"34117 Kassel","Geprueft":null,"Existiert":null}},{"type":"Feature","id":121,"geometry":{"type":"Point","coordinates":[9.5042783530492176,51.320300043787405]},"properties":{"OBJECTID":121,"Objekt":"Schule \"Am Wall\"","Str":"Schützenplatz","Hsnr":"3","PLZ":34117,"Ort":"Kassel","Tel":null,"Link":"https://www.kassel.de/verzeichnisse/adressverzeichnis/schulen/grundschulen/schule-am-wall.php","Adresse":"Schützenplatz 3","Plz_Ort":"34117 Kassel","Geprueft":null,"Existiert":null}},{"type":"Feature","id":122,"geometry":{"type":"Point","coordinates":[9.4959083901857966,51.317371368781828]},"properties":{"OBJECTID":122,"Objekt":"Verwaltungs- und Versammlungsgebäude des DGB","Str":"Spohrstraße","Hsnr":"6-8","PLZ":34117,"Ort":"Kassel","Tel":null,"Link":null,"Adresse":"Spohrstraße 6-8","Plz_Ort":"34117 Kassel","Geprueft":null,"Existiert":null}},{"type":"Feature","id":123,"geometry":{"type":"Point","coordinates":[9.4954892299737654,51.317921131966393]},"properties":{"OBJECTID":123,"Objekt":"Tankstelle","Str":"Spohrstraße","Hsnr":"9","PLZ":34117,"Ort":"Kassel","Tel":null,"Link":null,"Adresse":"Spohrstraße 9","Plz_Ort":"34117 Kassel","Geprueft":null,"Existiert":null}},{"type":"Feature","id":124,"geometry":{"type":"Point","coordinates":[9.5091434678421187,51.317611337192112]},"properties":{"OBJECTID":124,"Objekt":"Finkenherd","Str":"Finkenherd","Hsnr":null,"PLZ":34125,"Ort":"Kassel","Tel":null,"Link":null,"Adresse":"Finkenherd ","Plz_Ort":"34125 Kassel","Geprueft":null,"Existiert":null}},{"type":"Feature","id":125,"geometry":{"type":"Point","coordinates":[9.4903800457316603,51.314890679491924]},"properties":{"OBJECTID":125,"Objekt":"Ständeplatz","Str":"Ständeplatz","Hsnr":"1-21","PLZ":34117,"Ort":"Kassel","Tel":null,"Link":null,"Adresse":"Ständeplatz 1-21","Plz_Ort":"34117 Kassel","Geprueft":null,"Existiert":null}},{"type":"Feature","id":126,"geometry":{"type":"Point","coordinates":[9.5053055153971169,51.312091018622688]},"properties":{"OBJECTID":126,"Objekt":"Wohnhaus","Str":"Sternstraße","Hsnr":"19","PLZ":34123,"Ort":"Kassel","Tel":null,"Link":null,"Adresse":"Sternstraße 19","Plz_Ort":"34123 Kassel","Geprueft":null,"Existiert":null}},{"type":"Feature","id":127,"geometry":{"type":"Point","coordinates":[9.5093178757657757,51.315814396739484]},"properties":{"OBJECTID":127,"Objekt":"Zollmauer","Str":"Wallstraße","Hsnr":null,"PLZ":34125,"Ort":"Kassel","Tel":null,"Link":null,"Adresse":"Wallstraße ","Plz_Ort":"34125 Kassel","Geprueft":null,"Existiert":null}},{"type":"Feature","id":128,"geometry":{"type":"Point","coordinates":[9.4911180622489475,51.309514257976993]},"properties":{"OBJECTID":128,"Objekt":"Denkmal im Fürstengarten","Str":"Weinbergstraße","Hsnr":null,"PLZ":34117,"Ort":"Kassel","Tel":null,"Link":null,"Adresse":"Weinbergstraße ","Plz_Ort":"34117 Kassel","Geprueft":null,"Existiert":null}},{"type":"Feature","id":129,"geometry":{"type":"Point","coordinates":[9.4914852024552516,51.309212082460284]},"properties":{"OBJECTID":129,"Objekt":"Pavillionbau","Str":"Weinbergstraße","Hsnr":null,"PLZ":34117,"Ort":"Kassel","Tel":null,"Link":null,"Adresse":"Weinbergstraße ","Plz_Ort":"34117 Kassel","Geprueft":null,"Existiert":null}},{"type":"Feature","id":130,"geometry":{"type":"Point","coordinates":[9.4923032082286696,51.310190455741377]},"properties":{"OBJECTID":130,"Objekt":"Kapelle des Elisabeth-Krankenhauses","Str":"Weinbergstraße","Hsnr":"7","PLZ":34117,"Ort":"Kassel","Tel":null,"Link":null,"Adresse":"Weinbergstraße 7","Plz_Ort":"34117 Kassel","Geprueft":null,"Existiert":null}},{"type":"Feature","id":131,"geometry":{"type":"Point","coordinates":[9.5075948023432204,51.317051053161052]},"properties":{"OBJECTID":131,"Objekt":"Ruine des Karlshospitals","Str":"Weserstraße","Hsnr":"2","PLZ":34125,"Ort":"Kassel","Tel":null,"Link":null,"Adresse":"Weserstraße 2","Plz_Ort":"34125 Kassel","Geprueft":null,"Existiert":null}},{"type":"Feature","id":132,"geometry":{"type":"Point","coordinates":[9.4962690554209637,51.315904734800036]},"properties":{"OBJECTID":132,"Objekt":"Henschel- Haus","Str":"Wolfsschlucht","Hsnr":"24-24A","PLZ":34117,"Ort":"Kassel","Tel":null,"Link":null,"Adresse":"Wolfsschlucht 24-24A","Plz_Ort":"34117 Kassel","Geprueft":null,"Existiert":null}}]}